[
    {
      "country": "AD",
      "name": "Sant Julià de Lòria",
      "lat": "42.46372",
      "lng": "1.49129"
    },
    {
      "country": "AD",
      "name": "Pas de la Casa",
      "lat": "42.54277",
      "lng": "1.73361"
    },
    {
      "country": "AD",
      "name": "Ordino",
      "lat": "42.55623",
      "lng": "1.53319"
    },
    {
      "country": "AD",
      "name": "les Escaldes",
      "lat": "42.50729",
      "lng": "1.53414"
    },
    {
      "country": "AD",
      "name": "la Massana",
      "lat": "42.54499",
      "lng": "1.51483"
    },
    {
      "country": "AD",
      "name": "Encamp",
      "lat": "42.53474",
      "lng": "1.58014"
    },
    {
      "country": "AD",
      "name": "Canillo",
      "lat": "42.5676",
      "lng": "1.59756"
    },
    {
      "country": "AD",
      "name": "Arinsal",
      "lat": "42.57205",
      "lng": "1.48453"
    },
    {
      "country": "AD",
      "name": "Andorra la Vella",
      "lat": "42.50779",
      "lng": "1.52109"
    },
    {
      "country": "AE",
      "name": "Umm Al Quwain City",
      "lat": "25.56473",
      "lng": "55.55517"
    },
    {
      "country": "AE",
      "name": "Ras Al Khaimah City",
      "lat": "25.78953",
      "lng": "55.9432"
    },
    {
      "country": "AE",
      "name": "Muzayri‘",
      "lat": "23.14355",
      "lng": "53.7881"
    },
    {
      "country": "AE",
      "name": "Murbaḩ",
      "lat": "25.27623",
      "lng": "56.36256"
    },
    {
      "country": "AE",
      "name": "Maşfūţ",
      "lat": "24.81089",
      "lng": "56.10657"
    }
]